,region,department,overseas,city,station,latitude,longitude
2,GRAND EST,MOSELLE,False,HAYANGE,Hayange&FR01005,49.324722,6.076108
3,GRAND EST,MOSELLE,False,METZ,Metz-Centre&FR01011,49.119442,6.180833
4,GRAND EST,MOSELLE,False,METZ,Metz-Borny&FR01012,49.110283,6.223336
5,GRAND EST,MEURTHE-ET-MOSELLE,False,PONT-À-MOUSSON,Pont-à-Mousson&FR01014,48.915,6.058336
6,GRAND EST,MEURTHE-ET-MOSELLE,False,BLÉNOD-LÈS-PONT-À-MOUSSON,Blénod-lès-PAM&FR01015,48.884724,6.051392
7,GRAND EST,MEURTHE-ET-MOSELLE,False,ATTON,Atton&FR01016,48.886387,6.093611
8,GRAND EST,MOSELLE,False,SCY-CHAZELLES,Scy-Chazelles&FR01018,49.107502,6.122775
9,GRAND EST,MOSELLE,False,THIONVILLE,Thionville-Piscine&FR01019,49.36861,6.160831
10,GRAND EST,MOSELLE,False,THIONVILLE,Thionville-Centre&FR01020,49.358337,6.156942
11,GRAND EST,MOSELLE,False,THIONVILLE,Thionville-Garche&FR01021,49.394444,6.201392
12,GRAND EST,MOSELLE,False,HAYANGE,HAYANGE-MARSPICH&FR01059,49.3374,6.08207
13,GRAND EST,MOSELLE,False,MALROY,Malroy&FR01060,49.16885,6.212669
14,GRAND EST,MOSELLE,False,FLORANGE,Florange_Bétange_HAP&FR01061,49.3331,6.1147
15,GRAND EST,MOSELLE,False,SERÉMANGE-ERZANGE,Serémange-Erzange&FR01063,49.321334,6.103931
16,GRAND EST,MOSELLE,False,METZ,Metz- Pont Grilles&FR01064,49.12508,6.181219
17,GRAND EST,MEUSE,False,BELLEVILLE-SUR-MEUSE,Belleville sur Meuse&FR01065,49.16778,5.387461
18,PROVENCE-ALPES-COTE D'AZUR,BOUCHES-DU-RHÔNE,False,BERRE-L'ÉTANG,Berre l'Etang&FR02001,43.486234,5.171939
19,PROVENCE-ALPES-COTE D'AZUR,BOUCHES-DU-RHÔNE,False,MARTIGUES,Martigues P. Central&FR02004,43.416661,5.042731
20,PROVENCE-ALPES-COTE D'AZUR,BOUCHES-DU-RHÔNE,False,MARTIGUES,Martigues Laurons&FR02006,43.358982,5.023388
21,PROVENCE-ALPES-COTE D'AZUR,BOUCHES-DU-RHÔNE,False,MARTIGUES,Martigues La Gatasse&FR02007,43.360692,5.058139
22,PROVENCE-ALPES-COTE D'AZUR,BOUCHES-DU-RHÔNE,False,PORT-DE-BOUC,Port de Bouc Leque&FR02008,43.401952,4.981919
23,PROVENCE-ALPES-COTE D'AZUR,BOUCHES-DU-RHÔNE,False,PORT-SAINT-LOUIS-DU-RHÔNE,Port Saint Louis&FR02009,43.39378,4.801024
24,PROVENCE-ALPES-COTE D'AZUR,BOUCHES-DU-RHÔNE,False,FOS-SUR-MER,Fos sur Mer&FR02011,43.437858,4.945116
25,PROVENCE-ALPES-COTE D'AZUR,BOUCHES-DU-RHÔNE,False,ISTRES,Istres&FR02012,43.506149,4.982898
26,PROVENCE-ALPES-COTE D'AZUR,BOUCHES-DU-RHÔNE,False,FOS-SUR-MER,Fos Les Carabins&FR02013,43.458927,4.934572
27,PROVENCE-ALPES-COTE D'AZUR,BOUCHES-DU-RHÔNE,False,ROGNAC,Rognac les Brets&FR02020,43.510802,5.220046
28,PROVENCE-ALPES-COTE D'AZUR,BOUCHES-DU-RHÔNE,False,SAUSSET-LES-PINS,Sausset les Pins&FR02021,43.331245,5.117696
29,PROVENCE-ALPES-COTE D'AZUR,BOUCHES-DU-RHÔNE,False,ARLES,Arles&FR02022,43.675114,4.62921
30,PROVENCE-ALPES-COTE D'AZUR,BOUCHES-DU-RHÔNE,False,MARTIGUES,Martigues Lavera&FR02028,43.386564,5.026868
31,PROVENCE-ALPES-COTE D'AZUR,BOUCHES-DU-RHÔNE,False,CHÂTEAUNEUF-LES-MARTIGUES,Chateauneuf La Mede&FR02029,43.399546,5.113214
32,PROVENCE-ALPES-COTE D'AZUR,BOUCHES-DU-RHÔNE,False,SALON-DE-PROVENCE,SALON&FR02041,43.639002,5.101097
33,PROVENCE-ALPES-COTE D'AZUR,BOUCHES-DU-RHÔNE,False,MARIGNANE,Marignane&FR02043,43.4165306,5.222281
34,PROVENCE-ALPES-COTE D'AZUR,BOUCHES-DU-RHÔNE,False,MARSEILLE 8E ARRONDISSEMENT,MARSEILLE RABATAU&FR03006,43.276451,5.39736
35,PROVENCE-ALPES-COTE D'AZUR,BOUCHES-DU-RHÔNE,False,MARSEILLE 15E ARRONDISSEMENT,MARSEILLE ST LOUIS&FR03014,43.348048,5.360119
36,PROVENCE-ALPES-COTE D'AZUR,BOUCHES-DU-RHÔNE,False,AIX-EN-PROVENCE,AIX ROY RENE&FR03021,43.524075,5.448164
37,PROVENCE-ALPES-COTE D'AZUR,VAR,False,PLAN-D'AUPS-SAINTE-BAUME,PLAN AUPS/STE  BAUME&FR03027,43.335201,5.727365
38,PROVENCE-ALPES-COTE D'AZUR,BOUCHES-DU-RHÔNE,False,AIX-EN-PROVENCE,AIX CENTRE ECOLE ART&FR03029,43.530285,5.440912
39,PROVENCE-ALPES-COTE D'AZUR,BOUCHES-DU-RHÔNE,False,GARDANNE,GARDANNE&FR03030,43.453584,5.466672
40,PROVENCE-ALPES-COTE D'AZUR,BOUCHES-DU-RHÔNE,False,AUBAGNE,AUBAGNE LES PASSONS&FR03032,43.293138,5.574184
41,PROVENCE-ALPES-COTE D'AZUR,BOUCHES-DU-RHÔNE,False,LA PENNE-SUR-HUVEAUNE,VALLEE HUVEAUNE&FR03037,43.283341,5.511384
42,PROVENCE-ALPES-COTE D'AZUR,BOUCHES-DU-RHÔNE,False,MARSEILLE 4E ARRONDISSEMENT,MARSEILLE 5 AVENUES&FR03043,43.305287,5.394716
43,PROVENCE-ALPES-COTE D'AZUR,BOUCHES-DU-RHÔNE,False,AIX-EN-PROVENCE,AIX PLATANES&FR03048,43.555777,5.461232
44,PROVENCE-ALPES-COTE D'AZUR,VAR,False,LA SEYNE-SUR-MER,LA SEYNE GENOUD&FR03060,43.101565,5.875404
45,PROVENCE-ALPES-COTE D'AZUR,VAR,False,BRIGNOLES,BRIGNOLES&FR03067,43.398731,6.075611
46,PROVENCE-ALPES-COTE D'AZUR,VAR,False,TOULON,TOULON FOCH&FR03068,43.126821,5.921605
47,PROVENCE-ALPES-COTE D'AZUR,VAR,False,HYÈRES,HYERES&FR03069,43.119737,6.131319
48,PROVENCE-ALPES-COTE D'AZUR,VAR,False,FRÉJUS,ESTEREL&FR03070,43.437874,6.76839
49,PROVENCE-ALPES-COTE D'AZUR,VAR,False,TOULON,TOULON CLARET&FR03071,43.131113,5.924184
50,PROVENCE-ALPES-COTE D'AZUR,VAUCLUSE,False,AVIGNON,AVIGNON   MAIRIE&FR03080,43.949673,4.804341
51,PROVENCE-ALPES-COTE D'AZUR,VAUCLUSE,False,LE PONTET,LE PONTET&FR03084,43.960144,4.856731
52,PROVENCE-ALPES-COTE D'AZUR,VAUCLUSE,False,APT,APT&FR03086,43.88012,5.362038
53,PROVENCE-ALPES-COTE D'AZUR,VAUCLUSE,False,AVIGNON,Avignon Semard&FR03087,43.93706,4.824909
54,PROVENCE-ALPES-COTE D'AZUR,VAUCLUSE,False,CARPENTRAS,CARPENTRAS&FR03088,44.060347,5.067413
55,ILE-DE-FRANCE,HAUTS-DE-SEINE,False,GENNEVILLIERS,GENNEVILLIERS&FR04002,48.92972,2.294722
56,ILE-DE-FRANCE,PARIS,False,PARIS 18E ARRONDISSEMENT,PARIS 18eme&FR04004,48.891666,2.346667
57,ILE-DE-FRANCE,PARIS,False,PARIS 14E ARRONDISSEMENT,Place Victor Basch&FR04012,48.827778,2.3275
58,ILE-DE-FRANCE,PARIS,False,PARIS 12E ARRONDISSEMENT,PARIS 12eme&FR04014,48.837223,2.3939
59,ILE-DE-FRANCE,HAUTS-DE-SEINE,False,NEUILLY-SUR-SEINE,NEUILLY-SUR-SEINE&FR04017,48.88139,2.278056
60,ILE-DE-FRANCE,SEINE-SAINT-DENIS,False,AUBERVILLIERS,AUBERVILLIERS&FR04018,48.9039,2.3847
61,ILE-DE-FRANCE,VAL-D'OISE,False,CERGY,CERGY-PONTOISE&FR04023,49.04639,2.043056
62,ILE-DE-FRANCE,VAL-D'OISE,False,GONESSE,GONESSE&FR04024,48.99083,2.444722
63,ILE-DE-FRANCE,YVELINES,False,VERSAILLES,VERSAILLES&FR04029,48.799168,2.130556
64,ILE-DE-FRANCE,PARIS,False,PARIS 8E ARRONDISSEMENT,Av Champs Elysees&FR04031,48.86889,2.311944
65,ILE-DE-FRANCE,VAL-DE-MARNE,False,VITRY-SUR-SEINE,VITRY-SUR-SEINE&FR04034,48.7758,2.3758
66,ILE-DE-FRANCE,PARIS,False,PARIS 13E ARRONDISSEMENT,PARIS 13eme&FR04037,48.82861,2.360278
67,ILE-DE-FRANCE,YVELINES,False,SONCHAMP,Zone Rurale SO&FR04038,48.581944,1.883333
68,ILE-DE-FRANCE,VAL-D'OISE,False,SAINT-MARTIN-DU-TERTRE,Zone Rurale Nord&FR04048,49.100277,2.343889
69,ILE-DE-FRANCE,ESSONNE,False,LES ULIS,LES ULIS&FR04049,48.679443,2.165556
70,ILE-DE-FRANCE,VAL-D'OISE,False,ARGENTEUIL,ARGENTEUIL&FR04051,48.95139,2.223611
71,ILE-DE-FRANCE,PARIS,False,PARIS 1ER ARRONDISSEMENT,PARIS 1er Les Halles&FR04055,48.86212,2.344616
72,ILE-DE-FRANCE,SEINE-SAINT-DENIS,False,SAINT-DENIS,Auto A1 -Saint-Denis&FR04058,48.925278,2.356667
73,ILE-DE-FRANCE,SEINE-SAINT-DENIS,False,SAINT-DENIS,SAINT-DENIS&FR04059,48.93722,2.361667
74,ILE-DE-FRANCE,PARIS,False,PARIS 7E ARRONDISSEMENT,PARIS 7eme&FR04060,48.8572,2.2933
75,ILE-DE-FRANCE,YVELINES,False,MANTES-LA-JOLIE,MANTES-LA-JOLIE&FR04063,48.9964,1.7033
76,ILE-DE-FRANCE,ESSONNE,False,BOIS-HERPIN,Zone rurale Sud&FR04066,48.364166,2.236944
77,ILE-DE-FRANCE,SEINE-ET-MARNE,False,MELUN,MELUN&FR04069,48.54139,2.661389
78,ILE-DE-FRANCE,PARIS,False,PARIS 6E ARRONDISSEMENT,Rue Bonaparte&FR04071,48.856388,2.335278
79,ILE-DE-FRANCE,SEINE-ET-MARNE,False,LOGNES,LOGNES&FR04098,48.84028,2.635278
80,ILE-DE-FRANCE,VAL-DE-MARNE,False,NOGENT-SUR-MARNE,NOGENT-SUR-MARNE&FR04099,48.840557,2.484444
81,ILE-DE-FRANCE,SEINE-SAINT-DENIS,False,VILLEMOMBLE,VILLEMOMBLE&FR04100,48.881947,2.507222
82,ILE-DE-FRANCE,VAL-DE-MARNE,False,CHAMPIGNY-SUR-MARNE,CHAMPIGNY-SUR-MARNE&FR04101,48.816387,2.5175
83,ILE-DE-FRANCE,PARIS,False,PARIS 2E ARRONDISSEMENT,Place de l'Opéra&FR04118,48.870274,2.3325
84,ILE-DE-FRANCE,SEINE-ET-MARNE,False,MELUN,RN6-MELUN&FR04122,48.528057,2.653611
85,ILE-DE-FRANCE,SEINE-SAINT-DENIS,False,PANTIN,RN2-PANTIN&FR04123,48.90222,2.390833
86,ILE-DE-FRANCE,PARIS,False,PARIS 9E ARRONDISSEMENT,Boulevard Haussmann&FR04131,48.873333,2.330278
87,ILE-DE-FRANCE,PARIS,False,PARIS 12E ARRONDISSEMENT,Boulevard Soult&FR04135,48.83796,2.408061
88,ILE-DE-FRANCE,PARIS,False,PARIS 4E ARRONDISSEMENT,Quai des Celestins&FR04141,48.85278,2.360556
89,ILE-DE-FRANCE,SEINE-ET-MARNE,False,MONTGÉ-EN-GOËLE,Zone Rurale Nord-Est&FR04142,49.028057,2.750278
90,ILE-DE-FRANCE,ESSONNE,False,MONTGERON,MONTGERON&FR04149,48.7067,2.4572
91,ILE-DE-FRANCE,HAUTS-DE-SEINE,False,PUTEAUX,LA DEFENSE&FR04150,48.891388,2.240556
92,ILE-DE-FRANCE,SEINE-SAINT-DENIS,False,BOBIGNY,BOBIGNY&FR04156,48.902504,2.4525
93,ILE-DE-FRANCE,VAL-D'OISE,False,FRÉMAINVILLE,Zone Rurale NO&FR04158,49.063087,1.866381
94,ILE-DE-FRANCE,SEINE-ET-MARNE,False,COULOMMIERS,RD934 Coulommiers&FR04173,48.8059,3.084158
95,ILE-DE-FRANCE,PARIS,False,PARIS 15E ARRONDISSEMENT,PARIS Stade Lenglen&FR04179,48.830387,2.269889
96,ILE-DE-FRANCE,ESSONNE,False,MONTLHÉRY,RN20 - MONTLHERY&FR04180,48.64093,2.26872
97,ILE-DE-FRANCE,YVELINES,False,RAMBOUILLET,RAMBOUILLET&FR04181,48.63373,1.830529
98,ILE-DE-FRANCE,SEINE-ET-MARNE,False,BAGNEAUX-SUR-LOING,BAGNEAUX-SUR-LOING&FR04184,48.231475,2.70617777777777
99,ILE-DE-FRANCE,SEINE-ET-MARNE,False,POMMEUSE,POMMEUSE&FR04185,48.8158806,2.99124722222222
100,ILE-DE-FRANCE,SEINE-SAINT-DENIS,False,TREMBLAY-EN-FRANCE,TREMBLAY-EN-FRANCE&FR04319,48.95555,2.575278
101,ILE-DE-FRANCE,ESSONNE,False,ÉVRY-COURCOURONNES ,EVRY&FR04323,48.62722,2.429167
102,ILE-DE-FRANCE,SEINE-ET-MARNE,False,BEAUTHEIL-SAINTS ,Zone Rurale Est&FR04324,48.761665,3.058333
103,ILE-DE-FRANCE,SEINE-ET-MARNE,False,FONTAINEBLEAU,Zone Rurale SE&FR04328,48.3547,2.6453
104,ILE-DE-FRANCE,PARIS,False,PARIS 12E ARRONDISSEMENT,Bld peripherique Est&FR04329,48.838615,2.412781
105,ILE-DE-FRANCE,YVELINES,False,LIMAY,LIMAY&FR04331,48.985523,1.754142
106,NORMANDIE,SEINE-MARITIME,False,SAINT-ROMAIN-DE-COLBOSC,St Romain de Colbosc&FR05010,49.528927,0.358733
107,NORMANDIE,SEINE-MARITIME,False,LE HAVRE,Caucriauville&FR05037,49.503906,0.175731
108,NORMANDIE,CALVADOS,False,HONFLEUR,Honfleur Sce Tech.&FR05040,49.415108,0.2437
109,NORMANDIE,EURE,False,QUILLEBEUF-SUR-SEINE,Quillebeuf Phare&FR05056,49.47372,0.526158
110,NORMANDIE,SEINE-MARITIME,False,TANCARVILLE,Tancarville Mairie&FR05069,49.487682,0.451756
111,NORMANDIE,SEINE-MARITIME,False,HARFLEUR,Harfleur Ecole Coty&FR05070,49.505,0.201694
112,NORMANDIE,SEINE-MARITIME,False,SAINTE-ADRESSE,Sainte Adresse&FR05072,49.50386,0.084614
113,NORMANDIE,SEINE-MARITIME,False,LE HAVRE,Le Havre Ec. Herriot&FR05074,49.48963,0.100703
114,NORMANDIE,SEINE-MARITIME,False,LE HAVRE,Le Havre Massillon&FR05078,49.4983,0.142706
115,NORMANDIE,SEINE-MARITIME,False,ROGERVILLE,Rogerville Mairie&FR05080,49.50362,0.266872
116,NORMANDIE,SEINE-MARITIME,False,LA CERLANGUE,La Cerlangue&FR05081,49.504036,0.411594
117,NORMANDIE,CALVADOS,False,TOUQUES,Touques&FR05082,49.348,0.109253
118,NORMANDIE,SEINE-MARITIME,False,GONFREVILLE-L'ORCHER,Gonfreville l Orcher&FR05083,49.50273,0.232486
119,NORMANDIE,SEINE-MARITIME,False,PORT-JÉRÔME-SUR-SEINE,NDGravenchon Pasteur&FR05084,49.493332,0.571853
120,NORMANDIE,SEINE-MARITIME,False,LILLEBONNE,Lillebonne&FR05085,49.512146,0.539036
121,NORMANDIE,SEINE-MARITIME,False,NOTRE-DAME-DE-BLIQUETUIT,Maison Parc Brotonne&FR05087,49.498295,0.758833
122,NORMANDIE,SEINE-MARITIME,False,FÉCAMP,Fécamp&FR05088,49.75,0.4159
123,NORMANDIE,SEINE-MARITIME,False,LE HAVRE,Le Havre Lafaurie-montant&FR05089,49.500187,0.110903
124,NORMANDIE,SEINE-MARITIME,False,LE HAVRE,Le Havre ville-haute&FR05090,49.514686,0.100645
125,NORMANDIE,SEINE-MARITIME,False,GONFREVILLE-L'ORCHER,Gonfreville l Orcher Côte Blanche&FR05500,49.4989,0.2296
126,NORMANDIE,SEINE-MARITIME,False,ROGERVILLE,Gonfreville Pissotière à Madame&FR05501,49.4975,0.2531
127,NORMANDIE,EURE,False,QUILLEBEUF-SUR-SEINE,Quillebeuf sur Seine rue Féret&FR05502,49.4675,0.531
128,NORMANDIE,SEINE-MARITIME,False,PORT-JÉRÔME-SUR-SEINE,Notre Dame de Gravenchon Prevert&FR05503,49.4811,0.574611
129,HAUTS-DE-FRANCE,NORD,False,VALENCIENNES,Valenciennes Acacias&FR06001,50.35853,3.50804
130,HAUTS-DE-FRANCE,NORD,False,DOUAI,Douai Theuriet&FR06003,50.37822,3.06586
131,HAUTS-DE-FRANCE,NORD,False,VALENCIENNES,Valenciennes Wallon&FR06006,50.36425,3.52273
132,HAUTS-DE-FRANCE,NORD,False,MAUBEUGE,Maubeuge Joyeuse&FR06007,50.27936,3.97691
133,HAUTS-DE-FRANCE,NORD,False,DENAIN,Denain Villars&FR06011,50.32276,3.39593
134,HAUTS-DE-FRANCE,NORD,False,CARTIGNIES,Cartignies&FR06133,50.09225,3.85003
135,HAUTS-DE-FRANCE,NORD,False,SAINT-AMAND-LES-EAUX,Saint Amand&FR06134,50.45647,3.42794
136,AUVERGNE-RHONE-ALPES,PUY-DE-DÔME,False,CLERMONT-FERRAND,Montferrand&FR07004,45.79728,3.113833
137,AUVERGNE-RHONE-ALPES,PUY-DE-DÔME,False,CLERMONT-FERRAND,Jardin Lecoq&FR07009,45.772167,3.0875
138,AUVERGNE-RHONE-ALPES,ALLIER,False,PARAY-LE-FRÉSIL,Paray le Fresil&FR07022,46.652668,3.600667
139,AUVERGNE-RHONE-ALPES,PUY-DE-DÔME,False,LES ANCIZES-COMPS,Les Ancizes&FR07028,45.929333,2.829806
140,AUVERGNE-RHONE-ALPES,CANTAL,False,RAGEADE,Rageade&FR07031,45.10472,3.277361
141,AUVERGNE-RHONE-ALPES,PUY-DE-DÔME,False,CLERMONT-FERRAND,Clermont-Esplanade Gare&FR07034,45.775696,3.09625
142,AUVERGNE-RHONE-ALPES,PUY-DE-DÔME,False,CHAMALIÈRES,Chamalières Europe&FR07039,45.774728,3.062978
143,AUVERGNE-RHONE-ALPES,ALLIER,False,VILLENEUVE-SUR-ALLIER,Villeneuve sur Allier&FR07048,46.659048,3.249247
144,AUVERGNE-RHONE-ALPES,PUY-DE-DÔME,False,CLERMONT-FERRAND,Beaulieu&FR07051,45.769,3.155
145,AUVERGNE-RHONE-ALPES,CANTAL,False,AURILLAC,Aurillac-Lagarde&FR07052,44.92008,2.441082
146,AUVERGNE-RHONE-ALPES,PUY-DE-DÔME,False,CLERMONT-FERRAND,Edouard Michelin&FR07053,45.780434,3.111592
147,AUVERGNE-RHONE-ALPES,HAUTE-LOIRE,False,LE PUY-EN-VELAY,Le Puy-Causans&FR07054,45.039001,3.887001
148,AUVERGNE-RHONE-ALPES,HAUTE-LOIRE,False,FAY-SUR-LIGNON,Pays du Mezenc&FR07056,44.98377,4.226006
149,AUVERGNE-RHONE-ALPES,ALLIER,False,MOULINS,Moulins Centre&FR07057,46.5619722,3.34063888888888
150,AUVERGNE-RHONE-ALPES,ALLIER,False,MONTLUÇON,Montluçon&FR07058,46.340723,2.593945
151,AUVERGNE-RHONE-ALPES,ALLIER,False,VICHY,Vichy&FR07059,46.130431,3.425694
152,AUVERGNE-RHONE-ALPES,PUY-DE-DÔME,False,ROYAT,Royat Périurbaine&FR07060,45.764111,3.046111
153,AUVERGNE-RHONE-ALPES,PUY-DE-DÔME,False,RIOM,Riom Périurbaine&FR07061,45.89674,3.122254
154,AUVERGNE-RHONE-ALPES,PUY-DE-DÔME,False,CLERMONT-FERRAND,Stade Leclanche&FR07202,45.807487,3.111111
155,OCCITANIE,HÉRAULT,False,MONTPELLIER,Montpellier Chaptal&FR08003,43.611302,3.86626
156,OCCITANIE,HÉRAULT,False,MONTPELLIER,Montpellier St Denis&FR08004,43.6051,3.87464
157,OCCITANIE,HÉRAULT,False,MONTPELLIER,Montpellier Prés d'Arènes&FR08016,43.5915,3.88681
158,OCCITANIE,HÉRAULT,False,LATTES,Montpellier Périurbaine Sud (Lattes)&FR08017,43.5705,3.9118
159,OCCITANIE,HÉRAULT,False,SAINT-GÉLY-DU-FESC,Montpellier St Gely&FR08018,43.6926,3.80021
160,OCCITANIE,HÉRAULT,False,LUNEL-VIEL,Lunel Viel&FR08020,43.6758,4.08838
161,OCCITANIE,HÉRAULT,False,AGDE,Agathois-piscénois&FR08022,43.2875,3.50484
162,OCCITANIE,HÉRAULT,False,CORNEILHAN,Biterrois-Narbonnais&FR08023,43.4068,3.18878
163,OCCITANIE,HÉRAULT,False,MONTPELLIER,Pompignane&FR08030,43.6096,3.89878
164,OCCITANIE,GARD,False,SAZE,Gard Rhodanien2&FR08209,43.9426,4.67958
165,OCCITANIE,GARD,False,SAINT-LAURENT-DES-ARBRES,GARNOR03&FR08252,44.054475,4.697408
166,OCCITANIE,GARD,False,NÎMES,Nimes Gauzy&FR08614,43.8344,4.3744
167,OCCITANIE,GARD,False,NÎMES,Nimes Planas&FR08616,43.8299,4.36199
168,OCCITANIE,GARD,False,LA CALMETTE,Nimes La Calmette&FR08617,43.9254,4.26581
169,OCCITANIE,PYRÉNÉES-ORIENTALES,False,SAINT-ESTÈVE,Perpignan St Esteve&FR08712,42.7198,2.83988
170,OCCITANIE,PYRÉNÉES-ORIENTALES,False,PERPIGNAN,Perpignan Rigaud&FR08713,42.6835,2.90351
171,OCCITANIE,PYRÉNÉES-ORIENTALES,False,PERPIGNAN,Perpignan Les Carmes&FR08714,42.6955,2.90053
172,NOUVELLE-AQUITAINE,CHARENTE-MARITIME,False,LA ROCHELLE,place de VERDUN&FR09003,46.162556,-1.153603
173,NOUVELLE-AQUITAINE,CHARENTE-MARITIME,False,AYTRÉ,Aytré&FR09008,46.135155,-1.117042
174,NOUVELLE-AQUITAINE,VIENNE,False,POITIERS,Les Couronneries&FR09015,46.586918,0.358583
175,NOUVELLE-AQUITAINE,CHARENTE,False,ANGOULÊME,Square Pablo Casals&FR09103,45.647415,0.167167
176,NOUVELLE-AQUITAINE,CHARENTE,False,ANGOULÊME,ANGOULEME-GAMBETTA&FR09106,45.65145,0.16236667
177,NOUVELLE-AQUITAINE,CHARENTE-MARITIME,False,LA ROCHELLE,La Pallice3 LR&FR09203,46.16161,-1.211203
178,NOUVELLE-AQUITAINE,DEUX-SÈVRES,False,AIRVAULT ,AIRVAULT 2&FR09301,46.824368,-0.135461
179,NOUVELLE-AQUITAINE,DEUX-SÈVRES,False,VILLIERS-EN-BOIS,Zoodyssée Chizé&FR09302,46.143173,-0.396042
180,NOUVELLE-AQUITAINE,DEUX-SÈVRES,False,NIORT,Niort Venise&FR09303,46.320016,-0.482888
181,NOUVELLE-AQUITAINE,DEUX-SÈVRES,False,AIRVAULT ,AIRVAULT 3&FR09304,46.823803,-0.135608
182,NOUVELLE-AQUITAINE,DEUX-SÈVRES,False,NIORT,Niort Trafic 6&FR09399,46.321976,-0.4664312
183,NOUVELLE-AQUITAINE,VIENNE,False,POITIERS,Poitiers-Le Nain&FR09403,46.5909,0.3404
184,NOUVELLE-AQUITAINE,VIENNE,False,POITIERS,Poitiers Centre  Augouard&FR09404,46.58389,0.345556
185,HAUTS-DE-FRANCE,NORD,False,DUNKERQUE,Malo-les-Bains&FR10004,51.04858,2.42004
186,HAUTS-DE-FRANCE,NORD,False,DUNKERQUE,Mardyck&FR10012,51.01943,2.25099
187,HAUTS-DE-FRANCE,PAS-DE-CALAIS,False,CALAIS,Calais Berthelot&FR10016,50.94729,1.84308
188,HAUTS-DE-FRANCE,NORD,False,DUNKERQUE,St Pol mer - cheminots&FR10017,51.032761,2.332358
189,HAUTS-DE-FRANCE,PAS-DE-CALAIS,False,SANGATTE,Sangatte&FR10025,50.94989,1.76917
190,HAUTS-DE-FRANCE,PAS-DE-CALAIS,False,CALAIS,Calais Parmentier&FR10026,50.9578,1.89008
191,HAUTS-DE-FRANCE,NORD,False,GRAVELINES,Gravelines PC/Drire&FR10028,50.98106,2.14317
192,HAUTS-DE-FRANCE,NORD,False,CAPPELLE-LA-GRANDE,Cappelle la Grande&FR10029,50.99594,2.36627
193,HAUTS-DE-FRANCE,PAS-DE-CALAIS,False,BOULOGNE-SUR-MER,Boulogne Diderot&FR10030,50.717029,1.605913
194,HAUTS-DE-FRANCE,PAS-DE-CALAIS,False,OUTREAU,Outreau&FR10032,50.69435,1.57657
195,HAUTS-DE-FRANCE,NORD,False,GRANDE-SYNTHE,Grande-synthe&FR10034,51.02446,2.30215
196,HAUTS-DE-FRANCE,PAS-DE-CALAIS,False,SAINT-OMER,St Omer Ribot&FR10041,50.74823,2.25978
197,HAUTS-DE-FRANCE,PAS-DE-CALAIS,False,CAMPAGNE-LÈS-BOULONNAIS,Campagne les B.&FR10132,50.61048,1.99145
198,HAUTS-DE-FRANCE,NORD,False,LILLE,Lille Leeds&FR11007,50.6407944,3.074772
199,HAUTS-DE-FRANCE,NORD,False,MARCQ-EN-BARŒUL,Marcq CTM&FR11016,50.67003,3.07656
200,HAUTS-DE-FRANCE,NORD,False,LILLE,Lille Fives&FR11025,50.62805,3.09031
201,HAUTS-DE-FRANCE,NORD,False,HALLUIN,Halluin stade&FR11026,50.775482,3.12568
202,HAUTS-DE-FRANCE,NORD,False,ROUBAIX,Roubaix Serres&FR11034,50.706535,3.18066
203,HAUTS-DE-FRANCE,NORD,False,WATTIGNIES,Wattignies&FR11114,50.59774,3.04946
204,OCCITANIE,HAUTE-GARONNE,False,TOULOUSE,ECOLE M.JACQUIER&FR12004,43.575694,1.418064
205,OCCITANIE,HAUTE-GARONNE,False,MIRAMONT-DE-COMMINGES,MIRAMONT&FR12015,43.093611,0.743611
206,OCCITANIE,HAUTE-GARONNE,False,SAINT-GAUDENS,DAURAT ST GAUDENS&FR12016,43.106156,0.71955
207,OCCITANIE,GERS,False,PEYRUSSE-VIEILLE,PEYRUSSE&FR12020,43.6287,0.179069
208,OCCITANIE,HAUTE-GARONNE,False,TOULOUSE,Toulouse Mazades&FR12021,43.623606,1.438531
209,OCCITANIE,TARN,False,ALBI,ALBI DELMAS&FR12026,43.927769,2.145897
210,OCCITANIE,GERS,False,GAUDONVILLE,GAUDONVILLE&FR12029,43.883933,0.845617
211,OCCITANIE,HAUTE-GARONNE,False,TOULOUSE,Toulouse Berthelot&FR12030,43.587344,1.444003
212,OCCITANIE,HAUTE-GARONNE,False,BÉLESTA-EN-LAURAGAIS,BELESTA EN LAURAGAIS&FR12031,43.44139,1.821944
213,OCCITANIE,HAUTE-GARONNE,False,TOULOUSE,EISENHOWER SETMI&FR12039,43.561581,1.393261
214,OCCITANIE,HAUTE-GARONNE,False,TOULOUSE,CHAPITRE SETMI&FR12040,43.556375,1.403964
215,OCCITANIE,HAUTE-GARONNE,False,MONTGISCARD,SICOVAL&FR12041,43.457306,1.571469
216,OCCITANIE,HAUTES-PYRÉNÉES,False,LOURDES,LOURDES LAPACCA&FR12042,43.096247,-0.040497
217,OCCITANIE,HAUTE-GARONNE,False,BLAGNAC,Toulouse aéroport côté trafic&FR12044,43.633478,1.375717
218,OCCITANIE,HAUTE-GARONNE,False,BESSIÈRES,BESSIERES ECONOTRE&FR12047,43.803139,1.595475
219,OCCITANIE,AVEYRON,False,VIVIEZ,VIVIEZ-Place du 8 Mai&FR12050,44.560544,2.226169
220,OCCITANIE,HAUTES-PYRÉNÉES,False,TARBES,Tarbes lycée Dupuy&FR12052,43.230297,0.062339
221,OCCITANIE,TARN,False,CASTRES,Stade Travet CASTRES&FR12053,43.610497,2.23015
222,OCCITANIE,HAUTE-GARONNE,False,TOULOUSE,TRAFIC_TOULOUSE&FR12054,43.643944,1.468244
223,OCCITANIE,HAUTE-GARONNE,False,TOULOUSE,Toulouse Port de l'Embouchure&FR12085,43.610386,1.4152
224,OCCITANIE,AVEYRON,False,RODEZ,Rodez&FR12095,44.35699225,2.57070422
225,GRAND EST,ARDENNES,False,LES MAZURES,REVIN&FR14008,49.90778,4.63
226,GRAND EST,MARNE,False,BÉTHENY,BETHENY&FR14010,49.28222,4.051111
227,GRAND EST,MARNE,False,REIMS,DOUMER&FR14011,49.250732,4.023064
228,GRAND EST,MARNE,False,REIMS,Jean d Aulan&FR14012,49.224167,4.020556
229,GRAND EST,MARNE,False,CHÂLONS-EN-CHAMPAGNE,CHALONS&FR14022,48.962223,4.36
230,GRAND EST,MARNE,False,ÉPERNAY,Rempart Perrier&FR14028,49.0461,3.955911
231,GRAND EST,MARNE,False,VITRY-LE-FRANÇOIS,Capitainerie&FR14029,48.7266,4.594781
232,GRAND EST,AUBE,False,TROYES,LA TOUR&FR14031,48.301666,4.076944
233,GRAND EST,AUBE,False,SAINT-PARRES-AUX-TERTRES,ST PARRES AUX TERTRE&FR14032,48.299168,4.117222
234,GRAND EST,AUBE,False,SAINTE-SAVINE,STE SAVINE&FR14033,48.295002,4.050278
235,GRAND EST,HAUTE-MARNE,False,SAINT-DIZIER,St DIZIER L. Michel&FR14042,48.645836,4.966111
236,GRAND EST,HAUTE-MARNE,False,BOURBONNE-LES-BAINS,HAP Bourbonne&FR14048,47.9542,5.7491
237,GRAND EST,ARDENNES,False,CHARLEVILLE-MÉZIÈRES,CHARLEVILLE&FR14051,49.745277,4.719167
238,GRAND EST,MARNE,False,REIMS,Métaux BSN&FR14801,49.233612,4.056939
239,AUVERGNE-RHONE-ALPES,ISÈRE,False,CHAMP-SUR-DRAC,Champ sur Drac&FR15013,45.07954,5.728653
240,AUVERGNE-RHONE-ALPES,ISÈRE,False,VOIRON,Voiron Urbain&FR15018,45.360176,5.589419
241,PROVENCE-ALPES-COTE D'AZUR,HAUTES-ALPES,False,LE MONÊTIER-LES-BAINS,Le Casset2&FR15031,44.997,6.4694
242,AUVERGNE-RHONE-ALPES,ISÈRE,False,SAINT-MARTIN-D'HÈRES,St Martin d'Heres&FR15038,45.1828,5.7531
243,AUVERGNE-RHONE-ALPES,ISÈRE,False,GRENOBLE,Grenoble Les Frenes&FR15043,45.1619,5.7356
244,AUVERGNE-RHONE-ALPES,ISÈRE,False,VIF,Grenoble PeriurbSud&FR15045,45.0578,5.6767
245,AUVERGNE-RHONE-ALPES,ISÈRE,False,GRENOBLE,Grenoble Boulevards&FR15046,45.18069,5.720625
246,AUVERGNE-RHONE-ALPES,ISÈRE,False,CROLLES,Gresivaudan Periurb&FR15048,45.2797,5.8822
247,AUVERGNE-RHONE-ALPES,ISÈRE,False,EYBENS,Rocade Sud Eybens&FR15053,45.15467,5.74523
248,GRAND EST,BAS-RHIN,False,MUNCHHAUSEN,Nord-Est Alsace&FR16017,48.919357,8.158458
249,GRAND EST,BAS-RHIN,False,STRASBOURG,STG Nord&FR16029,48.610363,7.781631
250,GRAND EST,BAS-RHIN,False,LA PETITE-PIERRE,Vosges du Nord&FR16031,48.85731,7.314175
251,GRAND EST,BAS-RHIN,False,STRASBOURG,STG Clemenceau&FR16034,48.59043,7.744983
252,GRAND EST,BAS-RHIN,False,STRASBOURG,Strasbourg A35&FR16040,48.575985,7.727478
253,GRAND EST,BAS-RHIN,False,GEISPOLSHEIM,Strasbourg Sud 2&FR16041,48.5157,7.687819
254,GRAND EST,HAUT-RHIN,False,THANN,Thann&FR16052,47.810932,7.105553
255,GRAND EST,HAUT-RHIN,False,COLMAR,Colmar Centre&FR16054,48.074642,7.350667
256,GRAND EST,HAUT-RHIN,False,MULHOUSE,Mulhouse Nord&FR16057,47.757435,7.347294
257,GRAND EST,HAUT-RHIN,False,CHALAMPÉ,Chalampé&FR16059,47.820248,7.538683
258,GRAND EST,HAUT-RHIN,False,VILLAGE-NEUF,C.C.3 Frontières&FR16060,47.594913,7.568175
259,GRAND EST,HAUT-RHIN,False,COLMAR,Colmar Sud&FR16064,48.065414,7.333139
260,GRAND EST,HAUT-RHIN,False,BRUNSTATT-DIDENHEIM ,Mulhouse Est&FR16065,47.723106,7.341603
261,GRAND EST,HAUT-RHIN,False,MULHOUSE,Mulhouse Sud 2&FR16066,47.737415,7.309075
262,GRAND EST,HAUT-RHIN,False,VIEUX-THANN,Vieux Thann 3&FR16067,47.80221,7.122844
263,GRAND EST,HAUT-RHIN,False,MULHOUSE,Mulhouse-Briand&FR16069,47.747684,7.321364
264,GRAND EST,BAS-RHIN,False,GRANDFONTAINE,Vosges Moyennes 2&FR16302,48.492992,7.1298
265,HAUTS-DE-FRANCE,OISE,False,NOGENT-SUR-OISE,Nogent sur Oise&FR18019,49.276386,2.482167
266,HAUTS-DE-FRANCE,SOMME,False,SALOUËL,Salouel&FR18035,49.86889,2.239806
267,HAUTS-DE-FRANCE,SOMME,False,ARREST,Arrest&FR18039,50.129448,1.610833
268,HAUTS-DE-FRANCE,AISNE,False,SAINT-QUENTIN,P. Roth St Quentin&FR18042,49.851334,3.284
269,HAUTS-DE-FRANCE,OISE,False,CREIL,Faiencerie Creil&FR18043,49.259552,2.474397
270,HAUTS-DE-FRANCE,SOMME,False,ROYE,Roye&FR18045,49.696697,2.801139
271,HAUTS-DE-FRANCE,SOMME,False,AMIENS,St Pierre Amiens&FR18053,49.901667,2.304597
272,HAUTS-DE-FRANCE,OISE,False,CREIL,Creil République&FR18055,49.260342,2.475004
273,HAUTS-DE-FRANCE,AISNE,False,NEUILLY-SAINT-FRONT,Neuilly-Saint-Front&FR18057,49.174931,3.260819
274,HAUTS-DE-FRANCE,SOMME,False,AMIENS,TRAFIC AMIENS&FR18079,49.87722,2.2825
275,HAUTS-DE-FRANCE,AISNE,False,SAINT-QUENTIN,TRAF Saint Quent 14&FR18080,49.84282,3.281439
276,HAUTS-DE-FRANCE,OISE,False,BEAUVAIS,Trafic Beauvais 1&FR18089,49.435932,2.084292
277,BRETAGNE,ILLE-ET-VILAINE,False,RENNES,Rennes Laennec&FR19002,48.10861,-1.66586
278,BRETAGNE,ILLE-ET-VILAINE,False,RENNES,Rennes Les Halles&FR19007,48.10751,-1.67984
279,BRETAGNE,ILLE-ET-VILAINE,False,RENNES,Rennes St-Yves&FR19010,48.11078,-1.68293
280,BRETAGNE,FINISTÈRE,False,BREST,Brest Mace&FR19012,48.38618,-4.4866
281,BRETAGNE,FINISTÈRE,False,BREST,Brest Desmoulins&FR19014,48.39746,-4.48871
282,BRETAGNE,FINISTÈRE,False,PLOUZANÉ,BREST Plouzané&FR19016,48.359444,-4.568055
283,BRETAGNE,ILLE-ET-VILAINE,False,RENNES,Rennes Pays-Bas&FR19017,48.08965,-1.65911
284,BRETAGNE,ILLE-ET-VILAINE,False,MORDELLES,MORDELLES BELLAIS&FR19018,48.082883,-1.834583
285,BRETAGNE,ILLE-ET-VILAINE,False,RENNES,Rennes Rue Saint Malo&FR19019,48.12659,-1.68606
286,BRETAGNE,CÔTES D'ARMOR,False,MERLÉAC,Kergoff&FR19020,48.261963,-2.943631
287,BRETAGNE,MORBILHAN,False,LORIENT,Lorient B. Bissonnet&FR19032,47.7425,-3.39501
288,BRETAGNE,MORBILHAN,False,VANNES,Vannes UTA&FR19033,47.64892,-2.76399
289,BRETAGNE,MORBILHAN,False,LORIENT,Lorient Normandie&FR19037,47.758947,-3.36938
290,BRETAGNE,FINISTÈRE,False,QUIMPER,Quimper Pommiers&FR19052,47.99612,-4.09972
291,BRETAGNE,FINISTÈRE,False,QUIMPER,Quimper Zola&FR19053,47.986606,-4.097658
292,BRETAGNE,CÔTES D'ARMOR,False,SAINT-BRIEUC,Saint Brieuc Balzac&FR19061,48.51351,-2.74953
293,BRETAGNE,ILLE-ET-VILAINE,False,SAINT-MALO,StMalo Rocabey&FR19082,48.65306,-2.00268
294,AUVERGNE-RHONE-ALPES,RHÔNE,False,LA MULATIÈRE,A7 SUD LYONNAIS&FR20013,45.720024,4.818156
295,AUVERGNE-RHONE-ALPES,RHÔNE,False,LYON 7E ARRONDISSEMENT,GERLAND&FR20017,45.73529,4.829794
296,AUVERGNE-RHONE-ALPES,RHÔNE,False,VILLEURBANNE,GRANDCLEMENT&FR20019,45.75836,4.886214
297,AUVERGNE-RHONE-ALPES,RHÔNE,False,FEYZIN,FEYZIN STADE&FR20029,45.6639,4.8459
298,AUVERGNE-RHONE-ALPES,RHÔNE,False,SAINT-FONS,ST FONS CENTRE&FR20031,45.7078,4.8644
299,AUVERGNE-RHONE-ALPES,RHÔNE,False,TERNAY,TERNAY&FR20037,45.6019,4.8022
300,AUVERGNE-RHONE-ALPES,RHÔNE,False,VAULX-EN-VELIN,VAULX EN VELIN&FR20046,45.7789,4.9247
301,AUVERGNE-RHONE-ALPES,AIN,False,MIRIBEL,COTIERE AIN&FR20047,45.823223,4.953958
302,AUVERGNE-RHONE-ALPES,RHÔNE,False,PUSIGNAN,SAINT EXUPERY&FR20048,45.7533,5.0722
303,AUVERGNE-RHONE-ALPES,RHÔNE,False,DIÈME,HAUT BEAUJOLAIS&FR20049,45.96141,4.465711
304,AUVERGNE-RHONE-ALPES,RHÔNE,False,VÉNISSIEUX,VENISSIEUX Village&FR20060,45.7036,4.8836
305,AUVERGNE-RHONE-ALPES,RHÔNE,False,LYON 3E ARRONDISSEMENT,LYON Centre&FR20062,45.757732,4.854214
306,AUVERGNE-RHONE-ALPES,RHÔNE,False,VERNAISON,VERNAISON&FR20064,45.650616,4.816911
307,AUVERGNE-RHONE-ALPES,RHÔNE,False,VILLEURBANNE,Lyon Périphérique&FR20069,45.77482,4.898572
308,AUVERGNE-RHONE-ALPES,RHÔNE,False,LYON 7E ARRONDISSEMENT,LYON TRAFIC JAURES&FR20070,45.7496944,4.84438888888888
309,AUVERGNE-RHONE-ALPES,RHÔNE,False,VILLEFRANCHE-SUR-SAÔNE,Villefranche Centre &FR20077,45.990112,4.715566
310,NORMANDIE,CALVADOS,False,CAEN,Caen Chemin-Vert&FR21001,49.19222,-0.391111
311,NORMANDIE,CALVADOS,False,CAEN,Caen Vaucelles&FR21016,49.175278,-0.353611
312,NORMANDIE,CALVADOS,False,OUISTREHAM,Ouistreham&FR21017,49.289444,-0.257778
313,NORMANDIE,CALVADOS,False,IFS,IFS Caen sud&FR21019,49.15167,-0.352778
314,NORMANDIE,CALVADOS,False,LISIEUX,Lisieux&FR21021,49.147224,0.227222
315,NORMANDIE,ORNE,False,CERISÉ,Alençon Météo-France&FR21031,48.445553,0.110833
316,NORMANDIE,MANCHE,False,CHERBOURG-EN-COTENTIN ,cherbourg doumer&FR21035,49.63639,-1.626667
317,NORMANDIE,MANCHE,False,CHERBOURG-EN-COTENTIN ,Cherbourg port charb&FR21037,49.64695,-1.59342
318,NORMANDIE,MANCHE,False,SAINT-LÔ,Saint-Lô Eglise&FR21040,49.11639,-1.084722
319,NORMANDIE,ORNE,False,LA COULONCHE,La Coulonche MERA&FR21050,48.645,-0.458333
320,NORMANDIE,CALVADOS,False,MOULT-CHICHEBOVILLE,Moult proximité&FR21060,49.117196,-0.169666
321,GRAND EST,MOSELLE,False,CARLING,Ecole de Carling(9)&FR22009,49.165726,6.716886
322,GRAND EST,MOSELLE,False,L' HÔPITAL,L Hôpital - Mairie&FR22011,49.158413,6.731664
323,GRAND EST,MOSELLE,False,SPICHEREN,Spicheren(14)&FR22014,49.19539,6.957444
324,GRAND EST,MOSELLE,False,SCHŒNECK,SCHOENECK (19)&FR22019,49.220364,6.925833
325,GRAND EST,MOSELLE,False,SARREGUEMINES,SARREGUEMINES&FR22022,49.118343,7.083539
326,GRAND EST,MOSELLE,False,FORBACH,Station de FORBACH&FR22054,49.18742,6.910867
327,PAYS DE LA LOIRE,LOIRE-ATLANTIQUE,False,DONGES,AMPERE&FR23001,47.324097,-2.081567
328,PAYS DE LA LOIRE,LOIRE-ATLANTIQUE,False,DONGES,LA MEGRETAIS&FR23003,47.322706,-2.039244
329,PAYS DE LA LOIRE,LOIRE-ATLANTIQUE,False,DONGES,PASTEUR&FR23004,47.317284,-2.073306
330,PAYS DE LA LOIRE,LOIRE-ATLANTIQUE,False,FROSSAY,FROSSAY&FR23068,47.24747,-1.936619
331,PAYS DE LA LOIRE,LOIRE-ATLANTIQUE,False,SAVENAY,SAVENAY&FR23069,47.36075,-1.95475
332,PAYS DE LA LOIRE,LOIRE-ATLANTIQUE,False,SAINT-ÉTIENNE-DE-MONTLUC,S ETIENNE DE MONTLUC&FR23070,47.28318,-1.783164
333,PAYS DE LA LOIRE,LOIRE-ATLANTIQUE,False,TRIGNAC,JULES VERNE&FR23075,47.315727,-2.190764
334,PAYS DE LA LOIRE,MAINE-ET-LOIRE,False,CHOLET,SAINT EXUPERY&FR23078,47.054443,-0.886111
335,PAYS DE LA LOIRE,LOIRE-ATLANTIQUE,False,NANTES,LA CHAUVINIERE&FR23107,47.252777,-1.573333
336,PAYS DE LA LOIRE,LOIRE-ATLANTIQUE,False,SAINT-NAZAIRE,LEON BLUM&FR23110,47.26412,-2.249858
337,PAYS DE LA LOIRE,MAINE-ET-LOIRE,False,ANGERS,BEAUX ARTS&FR23120,47.468513,-0.556053
338,PAYS DE LA LOIRE,MAYENNE,False,LAVAL,MAZAGRAN&FR23123,48.06943,-0.767692
339,PAYS DE LA LOIRE,VENDÉE,False,LA TARDIÈRE,LA TARDIERE&FR23124,46.656685,-0.743681
340,PAYS DE LA LOIRE,LOIRE-ATLANTIQUE,False,NANTES,VICTOR HUGO&FR23140,47.204356,-1.552914
341,PAYS DE LA LOIRE,LOIRE-ATLANTIQUE,False,PAIMBŒUF,CUTULLIC2&FR23149,47.286114,-2.032289
342,PAYS DE LA LOIRE,MAINE-ET-LOIRE,False,ANGERS,APPENTIS&FR23150,47.44739,-0.550067
343,PAYS DE LA LOIRE,VENDÉE,False,LA ROCHE-SUR-YON,DELACROIX&FR23152,46.6607,-1.436831
344,PAYS DE LA LOIRE,LOIRE-ATLANTIQUE,False,MONTOIR-DE-BRETAGNE,BONNE FONTAINE&FR23153,47.331524,-2.151625
345,PAYS DE LA LOIRE,LOIRE-ATLANTIQUE,False,BOUAYE,EPINETTES&FR23157,47.146088,-1.690269
346,PAYS DE LA LOIRE,SARTHE,False,SPAY,Fillé&FR23163,47.92192,0.151825
347,PAYS DE LA LOIRE,SARTHE,False,LE MANS,GUEDOU&FR23174,47.98892,0.195983
348,PAYS DE LA LOIRE,MAINE-ET-LOIRE,False,BOUCHEMAINE,CLOS DES BEAUVAIS&FR23175,47.430164,-0.610064
349,PAYS DE LA LOIRE,MAYENNE,False,SAINT-DENIS-D'ANJOU,SAINT-DENIS D'ANJOU&FR23177,47.78773,-0.444044
350,PAYS DE LA LOIRE,LOIRE-ATLANTIQUE,False,DONGES,PARSCAU DU PLESSIS&FR23178,47.319157,-2.066953
351,PAYS DE LA LOIRE,LOIRE-ATLANTIQUE,False,SAINT-NAZAIRE,PARC PAYSAGER&FR23181,47.273056,-2.223056
352,PAYS DE LA LOIRE,SARTHE,False,LE MANS,SOURCES&FR23182,47.971066,0.221422
353,PAYS DE LA LOIRE,LOIRE-ATLANTIQUE,False,NANTES,CIM BOUTEILLERIE&FR23188,47.2225,-1.5375
354,PAYS DE LA LOIRE,LOIRE-ATLANTIQUE,False,PORNICHET,GASPARD&FR23230,47.253056,-2.332067
355,PAYS DE LA LOIRE,LOIRE-ATLANTIQUE,False,REZÉ,LEVOYER&FR23238,47.1941472,-1.581677778
356,PAYS DE LA LOIRE,LOIRE-ATLANTIQUE,False,BOUGUENAIS,LES COUETS&FR23239,47.1859194,-1.59149722222222
357,PAYS DE LA LOIRE,LOIRE-ATLANTIQUE,False,MONTOIR-DE-BRETAGNE,CAME&FR23249,47.3210778,-2.127322
358,PAYS DE LA LOIRE,LOIRE-ATLANTIQUE,False,NANTES,FRERES GONCOURT&FR23251,47.204122,-1.564811
359,PROVENCE-ALPES-COTE D'AZUR,ALPES-MARITIMES,False,ANTIBES,ANTIBES JEAN MOULIN&FR24007,43.598803,7.093153
360,PROVENCE-ALPES-COTE D'AZUR,ALPES-MARITIMES,False,CANNES,CANNES BROUSSAILLES&FR24009,43.558389,7.005919
361,PROVENCE-ALPES-COTE D'AZUR,ALPES-MARITIMES,False,NICE,NICE OUEST BOTANIQUE&FR24011,43.685188,7.211174
362,PROVENCE-ALPES-COTE D'AZUR,ALPES-MARITIMES,False,BEUIL,CIANS&FR24014,44.094688,6.988978
363,PROVENCE-ALPES-COTE D'AZUR,ALPES-MARITIMES,False,GRASSE,GRASSE CLAVECIN&FR24015,43.657767,6.920878
364,PROVENCE-ALPES-COTE D'AZUR,ALPES-DE-HAUTE-PROVENCE,False,MANOSQUE,MANOSQUE&FR24018,43.835784,5.786131
365,PROVENCE-ALPES-COTE D'AZUR,ALPES-MARITIMES,False,PEILLON,PEILLON&FR24021,43.786583,7.373283
366,PROVENCE-ALPES-COTE D'AZUR,ALPES-MARITIMES,False,CONTES,CONTES 2&FR24023,43.788748,7.332382
367,PROVENCE-ALPES-COTE D'AZUR,HAUTES-ALPES,False,GAP,GAP COMMANDERIE&FR24033,44.555193,6.073015
368,PROVENCE-ALPES-COTE D'AZUR,ALPES-MARITIMES,False,NICE,NICE PROMENADE&FR24035,43.689291,7.242074
369,PROVENCE-ALPES-COTE D'AZUR,ALPES-MARITIMES,False,NICE,NICE ARSON&FR24036,43.702075,7.286256
370,PROVENCE-ALPES-COTE D'AZUR,HAUTES-ALPES,False,GAP,GAP JEAN JAURES&FR24038,44.548647,6.067237
371,PROVENCE-ALPES-COTE D'AZUR,ALPES-DE-HAUTE-PROVENCE,False,SAINT-MICHEL-L'OBSERVATOIRE,Obs Haute-Provence&FR24039,43.933476,5.711809
372,PROVENCE-ALPES-COTE D'AZUR,ALPES-MARITIMES,False,COURSEGOULES,Cheiron&FR24040,43.791911,7.048276
373,NORMANDIE,SEINE-MARITIME,False,GRAND-COURONNE,Gd Couronne Mairie&FR25035,49.358215,1.007853
374,NORMANDIE,SEINE-MARITIME,False,ROUEN,Espace du Palais&FR25036,49.442358,1.093789
375,NORMANDIE,EURE,False,ÉVREUX,Evreux Centre&FR25039,49.02134,1.148319
376,NORMANDIE,SEINE-MARITIME,False,LE MESNIL-ESNARD,Mesnil Esnard&FR25040,49.40619,1.15515
377,NORMANDIE,SEINE-MARITIME,False,SOTTEVILLE-LÈS-ROUEN,Centre Hospitalier&FR25043,49.4005,1.099042
378,NORMANDIE,SEINE-MARITIME,False,SAINTE-MARGUERITE-SUR-MER,Phare d Ailly&FR25045,49.916363,0.957178
379,NORMANDIE,EURE,False,VAL-DE-REUIL,Base loisirs Poses&FR25049,49.30487,1.214367
380,NORMANDIE,SEINE-MARITIME,False,BURES-EN-BRAY,Bures-en-bray&FR25050,49.78122,1.345083
381,NORMANDIE,SEINE-MARITIME,False,DIEPPE,Dieppe prox-auto&FR25051,49.918007,1.073972
382,NORMANDIE,SEINE-MARITIME,False,ROUEN,Rouen Proxi Quai de Paris&FR25053,49.436699,1.098838
383,NORMANDIE,SEINE-MARITIME,False,LE PETIT-QUEVILLY,Petit-Quevilly Sud 3&FR25054,49.4341639,1.067052778
384,NORMANDIE,SEINE-MARITIME,False,DIEPPE,Dieppe Golf&FR25055,49.920492,1.047892
385,NORMANDIE,SEINE-MARITIME,False,SAINT-SAËNS,Saint-Saens&FR25501,49.6713,1.2843
386,BOURGOGNE-FRANCHE-COMTE,CÔTE-D'OR,False,DIJON,Dijon Péjoces&FR26005,47.307368,5.065881
387,BOURGOGNE-FRANCHE-COMTE,CÔTE-D'OR,False,DAIX,Daix&FR26010,47.3456,5.002377
388,BOURGOGNE-FRANCHE-COMTE,NIÈVRE,False,SAINT-BRISSON,Morvan&FR26012,47.274762,4.099476
389,BOURGOGNE-FRANCHE-COMTE,CÔTE-D'OR,False,DIJON,Dijon Trémouille&FR26014,47.325744,5.041056
390,BOURGOGNE-FRANCHE-COMTE,YONNE,False,SENS,Sens&FR26016,48.200436,3.2773
391,BOURGOGNE-FRANCHE-COMTE,NIÈVRE,False,NEVERS,Nevers&FR26017,46.996828,3.171092
392,BOURGOGNE-FRANCHE-COMTE,YONNE,False,AUXERRE,Auxerre&FR26019,47.800575,3.576189
393,BOURGOGNE-FRANCHE-COMTE,CÔTE-D'OR,False,NUITS-SAINT-GEORGES,Nuits-Saint-Georges&FR26035,47.137231,4.950573
394,BOURGOGNE-FRANCHE-COMTE,CÔTE-D'OR,False,DIJON,Dijon-Transvaal&FR26043,47.315459,5.040202
395,BOURGOGNE-FRANCHE-COMTE,DOUBS,False,LE GRATTERIS,Le Gratteris&FR26114,47.182173,6.139338
396,AUVERGNE-RHONE-ALPES,ISÈRE,False,ROUSSILLON,ROUSSILLON&FR27002,45.36782,4.805147
397,AUVERGNE-RHONE-ALPES,ISÈRE,False,LES ROCHES-DE-CONDRIEU,ROCHES DE CONDRIEU&FR27003,45.454517,4.766528
398,AUVERGNE-RHONE-ALPES,ISÈRE,False,SABLONS,Sablons&FR27005,45.321845,4.770702
399,AUVERGNE-RHONE-ALPES,ISÈRE,False,BOURGOIN-JALLIEU,Bourgoin-Jallieu&FR27007,45.60822,5.270872
400,AUVERGNE-RHONE-ALPES,ISÈRE,False,LIEUDIEU,Plateau de Bonnevaux&FR27010,45.4609,5.181081
401,AUVERGNE-RHONE-ALPES,ISÈRE,False,SALAISE-SUR-SANNE,A7 Salaise Ouest&FR27011,45.344078,4.807481
402,HAUTS-DE-FRANCE,PAS-DE-CALAIS,False,HARNES,Harnes Serres&FR28010,50.44914,2.9
403,HAUTS-DE-FRANCE,PAS-DE-CALAIS,False,SAINT-LAURENT-BLANGY,St-Laurent-Blangy&FR28022,50.30886,2.807369
404,HAUTS-DE-FRANCE,PAS-DE-CALAIS,False,BÉTHUNE,Bethune Stade&FR28028,50.535385,2.635692
405,HAUTS-DE-FRANCE,PAS-DE-CALAIS,False,VERQUIGNEUL,Noeux-les-Mines&FR28033,50.48972,2.66642
406,HAUTS-DE-FRANCE,PAS-DE-CALAIS,False,ISBERGUES,ISBERGUES&FR28034,50.6257583,2.47322777777777
407,HAUTS-DE-FRANCE,PAS-DE-CALAIS,False,LENS,Lens Varsovie&FR28115,50.428604,2.836111
408,AUVERGNE-RHONE-ALPES,LOIRE,False,ROANNE,ROANNE&FR29423,46.04111,4.074656
409,AUVERGNE-RHONE-ALPES,LOIRE,False,SAINT-ÉTIENNE,SAINT ETIENNE SUD&FR29424,45.42009,4.395422
410,AUVERGNE-RHONE-ALPES,LOIRE,False,SAINT-CHAMOND,SAINT-CHAMOND&FR29426,45.475327,4.515003
411,AUVERGNE-RHONE-ALPES,LOIRE,False,RIVE-DE-GIER,RIVE DE GIER&FR29429,45.533424,4.623939
412,AUVERGNE-RHONE-ALPES,LOIRE,False,LA TALAUDIÈRE,LA TALAUDIERE&FR29439,45.481777,4.429667
413,AUVERGNE-RHONE-ALPES,LOIRE,False,SAINT-ÉTIENNE,ST ETIENNE BD URBAIN &FR29441,45.4479806,4.388763889
414,GRAND EST,MEURTHE-ET-MOSELLE,False,NANCY,Hotel Districal&FR30016,48.685856,6.175111
415,GRAND EST,VOSGES,False,REMIREMONT,Remiremont&FR30018,48.024605,6.585836
416,GRAND EST,VOSGES,False,ÉPINAL,Epinal&FR30019,48.17278,6.452811
417,GRAND EST,MEUSE,False,BAR-LE-DUC,Bar Le Duc&FR30020,48.77586,5.162789
418,GRAND EST,MEURTHE-ET-MOSELLE,False,FLÉVILLE-DEVANT-NANCY,Fléville&FR30021,48.621502,6.194922
419,GRAND EST,MEURTHE-ET-MOSELLE,False,LUNÉVILLE,Luneville&FR30026,48.584824,6.4839
420,GRAND EST,MEURTHE-ET-MOSELLE,False,FROLOIS,Frolois&FR30027,48.565445,6.129578
421,GRAND EST,VOSGES,False,XONRUPT-LONGEMER,Schlucht&FR30028,48.051117,7.011114
422,GRAND EST,VOSGES,False,VITTEL,Vittel&FR30029,48.19361,5.937222
423,GRAND EST,MEURTHE-ET-MOSELLE,False,NEUVES-MAISONS,Neuves-Maisons&FR30030,48.614914,6.107672
424,GRAND EST,MOSELLE,False,HÉMING,Heming&FR30032,48.694725,6.965275
425,GRAND EST,MEUSE,False,JONVILLE-EN-WOËVRE,Jonville en Woevre&FR30033,49.06583,5.785556
426,GRAND EST,MEURTHE-ET-MOSELLE,False,NANCY,Nancy-Charles III&FR30034,48.68817,6.190431
427,GRAND EST,MEURTHE-ET-MOSELLE,False,NANCY,Nancy-Libération&FR30036,48.69708,6.154194
428,GRAND EST,MEURTHE-ET-MOSELLE,False,VILLERS-LÈS-NANCY,Nancy-Brabois 2&FR30037,48.656944,6.136022
429,NOUVELLE-AQUITAINE,GIRONDE,False,BORDEAUX,GRAND PARC&FR31001,44.86139,-0.579444
430,NOUVELLE-AQUITAINE,GIRONDE,False,TALENCE,TALENCE&FR31002,44.800556,-0.588056
431,NOUVELLE-AQUITAINE,GIRONDE,False,BORDEAUX,BORDEAUX-BASTIDE&FR31003,44.849724,-0.543889
432,NOUVELLE-AQUITAINE,GIRONDE,False,MÉRIGNAC,MERIGNAC&FR31006,44.84139,-0.65
433,NOUVELLE-AQUITAINE,GIRONDE,False,BASSENS,BASSENS&FR31007,44.900276,-0.514722
434,NOUVELLE-AQUITAINE,GIRONDE,False,LE TEMPLE,LE TEMPLE&FR31008,44.865555,-0.939444
435,NOUVELLE-AQUITAINE,GIRONDE,False,AMBÈS,AMBES&FR31010,45.012223,-0.528333
436,NOUVELLE-AQUITAINE,PYRÉNÉES-ATLANTIQUES,False,BILLÈRE,BILLERE&FR31013,43.310833,-0.391111
437,NOUVELLE-AQUITAINE,PYRÉNÉES-ATLANTIQUES,False,BAYONNE,SAINT-CROUTS&FR31016,43.47972,-1.488056
438,NOUVELLE-AQUITAINE,PYRÉNÉES-ATLANTIQUES,False,ANGLET,ANGLET&FR31017,43.494031,-1.528765
439,NOUVELLE-AQUITAINE,PYRÉNÉES-ATLANTIQUES,False,LACQ,LACQ&FR31020,43.410557,-0.616944
440,NOUVELLE-AQUITAINE,PYRÉNÉES-ATLANTIQUES,False,LABASTIDE-CÉZÉRACQ,LABASTIDE CEZERACQ&FR31021,43.376276,-0.538192
441,NOUVELLE-AQUITAINE,PYRÉNÉES-ATLANTIQUES,False,MONT,LAGOR&FR31022,43.40972,-0.671667
442,NOUVELLE-AQUITAINE,PYRÉNÉES-ATLANTIQUES,False,MASLACQ,MASLACQ&FR31023,43.434166,-0.691944
443,NOUVELLE-AQUITAINE,PYRÉNÉES-ATLANTIQUES,False,MOURENX,MOURENX&FR31024,43.376945,-0.609444
444,NOUVELLE-AQUITAINE,LANDES,False,TARTAS,TARTAS Pelletrin&FR31026,43.838333,-0.810833
445,NOUVELLE-AQUITAINE,DORDOGNE,False,PÉRIGUEUX,PERIGUEUX&FR31033,45.18972,0.727222
446,NOUVELLE-AQUITAINE,LANDES,False,DAX,DAX&FR31036,43.704723,-1.038611
447,NOUVELLE-AQUITAINE,PYRÉNÉES-ATLANTIQUES,False,PAU,PAU TOURASSE&FR31039,43.31109,-0.352119
448,NOUVELLE-AQUITAINE,LOT-ET-GARONNE,False,MARMANDE,MARMANDE&FR31040,44.508656,0.142503
449,NOUVELLE-AQUITAINE,LANDES,False,MONT-DE-MARSAN,MONT DE MARSAN&FR31041,43.8961,-0.491403
450,NOUVELLE-AQUITAINE,PYRÉNÉES-ATLANTIQUES,False,BIARRITZ,Biarritz-hippodrome&FR31043,43.47024,-1.553843
451,NOUVELLE-AQUITAINE,GIRONDE,False,BORDEAUX,Bordeaux_GAUTIER&FR31045,44.83383,-0.59853
452,BOURGOGNE-FRANCHE-COMTE,SAÔNE-ET-LOIRE,False,CHALON-SUR-SAÔNE,Chalon Centre Ville&FR32001,46.782311,4.847322
453,BOURGOGNE-FRANCHE-COMTE,SAÔNE-ET-LOIRE,False,CHAMPFORGEUIL,Champforgueil&FR32002,46.821056,4.835083
454,BOURGOGNE-FRANCHE-COMTE,SAÔNE-ET-LOIRE,False,MONTCEAU-LES-MINES,Montceau-les-Mines 9me écluse&FR32005,46.678785,4.366893
455,BOURGOGNE-FRANCHE-COMTE,SAÔNE-ET-LOIRE,False,MÂCON,Macon Paul Bert&FR32006,46.316172,4.839994
456,BOURGOGNE-FRANCHE-COMTE,SAÔNE-ET-LOIRE,False,LE CREUSOT,Le Creusot Molette&FR32007,46.802375,4.417486
457,AUVERGNE-RHONE-ALPES,SAVOIE,False,CHAMBÉRY,PASTEUR&FR33101,45.56472,5.928333
458,AUVERGNE-RHONE-ALPES,SAVOIE,False,CHAMBÉRY,CHAMBERY LE HAUT&FR33102,45.59667,5.918611
459,AUVERGNE-RHONE-ALPES,SAVOIE,False,CHAMBÉRY,Chambéry Trafic&FR33105,45.56943,5.932986
460,AUVERGNE-RHONE-ALPES,SAVOIE,False,SAINT-JEAN-DE-MAURIENNE,SAINT JEAN&FR33111,45.274723,6.349722
461,AUVERGNE-RHONE-ALPES,SAVOIE,False,SAINT-MICHEL-DE-MAURIENNE,Maurienne Trafic&FR33113,45.209364,6.480326
462,AUVERGNE-RHONE-ALPES,HAUTE-SAVOIE,False,CHAMONIX-MONT-BLANC,CHAMONIX&FR33120,45.9225,6.87
463,AUVERGNE-RHONE-ALPES,SAVOIE,False,ALBERTVILLE,Albertville&FR33121,45.675,6.389722
464,AUVERGNE-RHONE-ALPES,SAVOIE,False,LÉCHÈRE ,La Léchère&FR33122,45.53583,6.471111
465,AUVERGNE-RHONE-ALPES,HAUTE-SAVOIE,False,ANNECY ,LOVERCHY&FR33201,45.89528,6.118333
466,AUVERGNE-RHONE-ALPES,HAUTE-SAVOIE,False,ANNECY ,NOVEL&FR33202,45.916943,6.135556
467,AUVERGNE-RHONE-ALPES,HAUTE-SAVOIE,False,ANNECY ,ANNECY Rocade&FR33203,45.9097,6.11825
468,AUVERGNE-RHONE-ALPES,HAUTE-SAVOIE,False,ANNEMASSE,ANNEMASSE&FR33211,46.19583,6.240556
469,AUVERGNE-RHONE-ALPES,HAUTE-SAVOIE,False,GAILLARD,GAILLARD&FR33212,46.19369,6.214858
470,AUVERGNE-RHONE-ALPES,HAUTE-SAVOIE,False,PASSY,PASSY&FR33220,45.92361,6.713611
471,AUVERGNE-RHONE-ALPES,HAUTE-SAVOIE,False,CHAMONIX-MONT-BLANC,BOSSONS&FR33232,45.907223,6.845833
472,AUVERGNE-RHONE-ALPES,HAUTE-SAVOIE,False,SAINT-GERMAIN-SUR-RHÔNE,St Germain/Rhône&FR33302,46.072224,5.820833
473,AUVERGNE-RHONE-ALPES,AIN,False,BOURG-EN-BRESSE,Bourg-en-Bresse&FR33305,46.211666,5.226389
474,CENTRE-VAL DE LOIRE,LOIRET,False,ORLÉANS,Gambetta&FR34013,47.907083,1.901139
475,CENTRE-VAL DE LOIRE,LOIRET,False,SAINT-JEAN-DE-BRAYE,St Jean&FR34014,47.917398,1.966258
476,CENTRE-VAL DE LOIRE,LOIRET,False,MARIGNY-LES-USAGES,Marigny-les-usages&FR34017,47.958972,2.009278
477,CENTRE-VAL DE LOIRE,INDRE-ET-LOIRE,False,JOUÉ-LÈS-TOURS,Joué lès Tours&FR34024,47.344139,0.653778
478,CENTRE-VAL DE LOIRE,INDRE-ET-LOIRE,False,TOURS,La Bruyère&FR34025,47.419083,0.682944
479,CENTRE-VAL DE LOIRE,INDRE-ET-LOIRE,False,CHANCEAUX-SUR-CHOISILLE,Tours péri-urbaine&FR34026,47.46925,0.717333
480,CENTRE-VAL DE LOIRE,INDRE-ET-LOIRE,False,TOURS,Pompidou&FR34028,47.394639,0.704861
481,CENTRE-VAL DE LOIRE,LOIRET,False,ORLÉANS,La_Source-CNRS&FR34029,47.83775,1.944667
482,CENTRE-VAL DE LOIRE,CHER,False,BOURGES,Bourges-Baffier&FR34030,47.075044,2.407183
483,CENTRE-VAL DE LOIRE,CHER,False,BOURGES,Leblanc&FR34032,47.082778,2.405333
484,CENTRE-VAL DE LOIRE,CHER,False,VERNEUIL,Verneuil&FR34038,46.814694,2.610069
485,CENTRE-VAL DE LOIRE,EURE-ET-LOIR,False,CHARTRES,Fulbert&FR34041,48.444417,1.510139
486,CENTRE-VAL DE LOIRE,EURE-ET-LOIR,False,OYSONVILLE,Oysonville&FR34043,48.391139,1.955611
487,CENTRE-VAL DE LOIRE,EURE-ET-LOIR,False,DREUX,Dreux Centre&FR34046,48.729694,1.358472
488,CENTRE-VAL DE LOIRE,EURE-ET-LOIR,False,SAINT-RÉMY-SUR-AVRE,Saint-Remy&FR34047,48.760889,1.233639
489,CENTRE-VAL DE LOIRE,EURE-ET-LOIR,False,CHARTRES,Chartres_trafic&FR34048,48.449158,1.492469
490,CENTRE-VAL DE LOIRE,INDRE,False,CHÂTEAUROUX,Chateauroux Sud&FR34051,46.798278,1.693139
491,CENTRE-VAL DE LOIRE,INDRE,False,VILLENTROIS-FAVEROLLES-EN-BERRY,Faverolles&FR34054,47.170167,1.409694
492,CENTRE-VAL DE LOIRE,INDRE,False,MONTIERCHAUME,Montierchaume&FR34056,46.864528,1.771944
493,CENTRE-VAL DE LOIRE,INDRE,False,ISSOUDUN,Issoudun Trafic ZR&FR34057,46.942941,2.003258
494,CENTRE-VAL DE LOIRE,LOIR-ET-CHER,False,BLOIS,Blois nord&FR34061,47.594256,1.302667
495,CENTRE-VAL DE LOIRE,LOIR-ET-CHER,False,BLOIS,Blois_trafic&FR34063,47.586544,1.326533
496,CENTRE-VAL DE LOIRE,LOIRET,False,MONTARGIS,Montargis_trafic&FR34064,48.006936,2.740111
497,CENTRE-VAL DE LOIRE,LOIRET,False,MONTARGIS,Montargis Fond&FR34065,47.996994,2.731511
498,CENTRE-VAL DE LOIRE,LOIRET,False,BAZOCHES-LES-GALLERANDES,Bazoches_CC&FR34108,48.166056,2.044028
499,NOUVELLE-AQUITAINE,HAUTE-VIENNE,False,SAINT-JUNIEN,ST JUNIEN - Fontaine&FR35002,45.89,0.9
500,NOUVELLE-AQUITAINE,CORRÈZE,False,BRIVE-LA-GAILLARDE,BRIVE - Dalton&FR35004,45.158745,1.537222
501,NOUVELLE-AQUITAINE,CREUSE,False,GUÉRET,GUERET - Nicolas&FR35005,46.17,1.87
502,NOUVELLE-AQUITAINE,CORRÈZE,False,TULLE,TULLE - Hugo&FR35006,45.26,1.76
503,NOUVELLE-AQUITAINE,HAUTE-VIENNE,False,LE PALAIS-SUR-VIENNE,PALAIS S/ V.- Garros&FR35007,45.869995,1.31
504,NOUVELLE-AQUITAINE,HAUTE-VIENNE,False,LIMOGES,LIMOGES - Aine&FR35010,45.829953,1.254846
505,NOUVELLE-AQUITAINE,CREUSE,False,LA NOUAILLE,LA NOUAILLE - MERA&FR35012,45.809998,2.06
506,NOUVELLE-AQUITAINE,HAUTE-VIENNE,False,SAILLAT-SUR-VIENNE,SAILLAT - Ipaper&FR35019,45.875823,0.823957
507,NOUVELLE-AQUITAINE,HAUTE-VIENNE,False,LIMOGES,LIMOGES - BERLAND&FR35027,45.84222,1.25967
508,AUVERGNE-RHONE-ALPES,DRÔME,False,PORTES-LÈS-VALENCE,Valence Périurb. Sud&FR36001,44.870243,4.876289
509,AUVERGNE-RHONE-ALPES,DRÔME,False,VALENCE,Valence Urb. Centre&FR36002,44.933514,4.893481
510,AUVERGNE-RHONE-ALPES,ARDÈCHE,False,SAINT-BAUZILE,Saint Bauzile CEC&FR36007,44.675938,4.673586
511,AUVERGNE-RHONE-ALPES,DRÔME,False,ROMANS-SUR-ISÈRE,Romans-sur-Isère&FR36019,45.0425,5.0443
512,AUVERGNE-RHONE-ALPES,DRÔME,False,SAINT-NAZAIRE-LE-DÉSERT,Drôme Rurale Sud-SND&FR36021,44.569443,5.278972
513,AUVERGNE-RHONE-ALPES,DRÔME,False,BOURG-LÈS-VALENCE,A7 Valence Est&FR36032,44.9492,4.890133
514,GUADELOUPE,GUADELOUPE,False,BAIE-MAHAULT,ST de Baie mahault&FR37001,16.257308,-61.591725
515,GUADELOUPE,GUADELOUPE,False,POINTE-À-PITRE,PTP-VICTOIRE&FR37006,16.23674,-61.534101
516,GUADELOUPE,GUADELOUPE,False,LES ABYMES,ST Vieux Bourg ABYMES&FR37007,16.25066,-61.527794
517,GUADELOUPE,GUADELOUPE,False,BASSE-TERRE,BT_PICHON&FR37010,15.994349,-61.727203
518,SAINT-MARTIN,SAINT-MARTIN,False,SAINT-MARTIN,SXM Marigot&FR37038,18.070114,-63.081481
519,GUADELOUPE,GUADELOUPE,False,LES ABYMES,ABYMES RN1&FR37040,16.254085,-61.53713
520,LA REUNION,LA REUNION,False,SAINT-DENIS,LYC. LISLET GEOFFROY&FR38001,-20.889893,55.46884
521,LA REUNION,LA REUNION,False,SAINT-DENIS,MONTGAILLARD&FR38002,-20.903294,55.468334
522,LA REUNION,LA REUNION,False,SAINT-DENIS,Ecole JOINVILLE&FR38008,-20.884575,55.453906
523,LA REUNION,LA REUNION,False,SAINTE-SUZANNE,Ecole La Marine&FR38009,-20.910585,55.618977
524,LA REUNION,LA REUNION,False,SAINT-PIERRE,Station Luther King&FR38011,-21.334406,55.45906
525,LA REUNION,LA REUNION,False,SAINT-PIERRE,Ligne Paradis&FR38014,-21.312895,55.474194
526,LA REUNION,LA REUNION,False,LE TAMPON,Station Bourg-Murat&FR38016,-21.204815,55.58262
527,LA REUNION,LA REUNION,False,SAINT-JOSEPH,Grand Coude&FR38017,-21.29433,55.62793
528,LA REUNION,LA REUNION,False,LE PORT,Centre Penitencier&FR38018,-20.9498,55.313828
529,LA REUNION,LA REUNION,False,SAINT-PAUL,Plateau Caillou&FR38020,-21.009739,55.272675
530,LA REUNION,LA REUNION,False,SAINT-PAUL,Grand Fond&FR38021,-21.032139,55.232563
531,LA REUNION,LA REUNION,False,SAINT-PIERRE,BD BANKS&FR38023,-21.331703,55.478949
532,LA REUNION,LA REUNION,False,SAINT-LEU,RDT SAINT-LEU&FR38024,-21.213212,55.302844
533,LA REUNION,LA REUNION,False,LA POSSESSION,Terrain de Sel&FR38091,-20.928686,55.332581
534,LA REUNION,LA REUNION,False,SAINT-LOUIS,Sarda Garriga&FR38098,-21.277075,55.403065
535,MARTINIQUE,MARTINIQUE,False,FORT-DE-FRANCE,Etang Zabricot&FR39003,14.603497,-61.041206
536,MARTINIQUE,MARTINIQUE,False,SCHŒLCHER,Ville de Schoelcher&FR39008,14.616389,-61.100792
537,MARTINIQUE,MARTINIQUE,False,LE LAMENTIN,Lamentin&FR39009,14.610653,-61.002586
538,MARTINIQUE,MARTINIQUE,False,FORT-DE-FRANCE,Concorde&FR39010,14.613844,-61.063492
539,MARTINIQUE,MARTINIQUE,False,FORT-DE-FRANCE,Reneville&FR39011,14.602253,-61.053642
540,MARTINIQUE,MARTINIQUE,False,SAINTE-LUCE,Sainte_Luce&FR39014,14.468869,-60.927417
541,MARTINIQUE,MARTINIQUE,False,FORT-DE-FRANCE,Hôtel de ville&FR39015,14.607444,-61.069778
542,MARTINIQUE,MARTINIQUE,False,LE ROBERT,Robert Bourg&FR39016,14.678025,-60.939056
543,MARTINIQUE,MARTINIQUE,False,FORT-DE-FRANCE,Bellevue&FR39017,14.601469,-61.085331
544,MARTINIQUE,MARTINIQUE,False,BELLEFONTAINE,Office du tourisme&FR39109,14.671083,-61.163361
545,GUYANE,GUYANE,False,KOUROU,Brady&FR40006,5.164248,-52.64649
546,GUYANE,GUYANE,False,MATOURY,Kalou&FR40007,4.84816,-52.3238
547,GUYANE,GUYANE,False,CAYENNE,Caiena3&FR40008,4.9378467,-52.32093
548,GUYANE,GUYANE,False,CAYENNE,Bouchon&FR40009,4.920833,-52.321944
549,GUYANE,GUYANE,False,MACOURIA,Matiti&FR40010,5.034602,-52.563795
550,CORSE,CORSE-DU-SUD,False,AJACCIO,AJACCIO CANETTO&FR41001,41.924694,8.735694
551,CORSE,HAUTE-CORSE,False,BASTIA,BASTIA GIRAUD&FR41002,42.697917,9.446417
552,CORSE,CORSE-DU-SUD,False,SARROLA-CARCOPINO,AJACCIO PIATANICCIA&FR41003,41.958028,8.820278
553,CORSE,HAUTE-CORSE,False,LUCCIANA,BASTIA LA MARANA&FR41004,42.535833,9.475972
554,CORSE,CORSE-DU-SUD,False,AJACCIO,AJACCIO SPOSATA&FR41007,41.949222,8.757583
555,CORSE,HAUTE-CORSE,False,BASTIA,BASTIA MONTESORO&FR41017,42.671333,9.434639
556,CORSE,HAUTE-CORSE,False,VENACO,VENACO&FR41024,42.236028,9.190028
557,CORSE,CORSE-DU-SUD,False,AJACCIO,AJACCIO ABBATUCCI&FR41059,41.92575,8.738278
558,CORSE,HAUTE-CORSE,False,BASTIA,BASTIA FANGO&FR41060,42.702833,9.446389
559,GRAND EST,BAS-RHIN,False,STRASBOURG,Strasbourg Neudorf Ecoquartier Danube&FR42010,48.572808,7.767833
560,GRAND EST,BAS-RHIN,False,HAGUENAU,Haguenau-Place marché aux bestiaux&FR42011,48.818352,7.786409
561,GRAND EST,MOSELLE,False,HÉMING,Héming Rue des Ecoles&FR42012,48.694513,6.965651
562,MAYOTTE,MAYOTTE,False,MAMOUDZOU,Kawéni Nord&FR43099,-12.761174,45.226197
563,OCCITANIE,TARN-ET-GARONNE,False,MONTAUBAN,Montauban&FR50060,44.01285657,1.37530522
564,OCCITANIE,PYRÉNÉES-ORIENTALES,False,PERPIGNAN,Perpignan bd Pyrénées&FR50224,42.69587,2.888483
565,BOURGOGNE-FRANCHE-COMTE,DOUBS,False,BESANÇON,Besancon Mégevand&FR82001,47.235973,6.023611
566,BOURGOGNE-FRANCHE-COMTE,DOUBS,False,MONTFAUCON,Montfaucon&FR82005,47.23461,6.076472
567,BOURGOGNE-FRANCHE-COMTE,DOUBS,False,BESANÇON,Besancon Prevoyance&FR82006,47.2474,6.015419
568,BOURGOGNE-FRANCHE-COMTE,DOUBS,False,MONTBÉLIARD,Montbéliard centre&FR82010,47.510307,6.794
569,BOURGOGNE-FRANCHE-COMTE,DOUBS,False,DAMBENOIS,Dambenois Citoyen&FR82012,47.538193,6.868361
570,BOURGOGNE-FRANCHE-COMTE,TERRITOIRE DE BELFORT,False,BELFORT,Belfort Octroi&FR82020,47.640667,6.859278
571,BOURGOGNE-FRANCHE-COMTE,DOUBS,False,MONTANDON,Montandon Baresans&FR82030,47.29464,6.825861
572,BOURGOGNE-FRANCHE-COMTE,JURA,False,DOLE,Dole centre&FR82040,47.09672,5.496389
573,BOURGOGNE-FRANCHE-COMTE,JURA,False,TAVAUX,Tavaux&FR82041,47.04261,5.400897
574,BOURGOGNE-FRANCHE-COMTE,JURA,False,DAMPARIS,Damparis&FR82042,47.06564,5.415028
575,BOURGOGNE-FRANCHE-COMTE,JURA,False,CHÂTENOIS,Chatenois&FR82043,47.14725,5.556117
576,BOURGOGNE-FRANCHE-COMTE,JURA,False,LONS-LE-SAUNIER,Lons-le-Saunier CV&FR82050,46.671307,5.556806
577,BOURGOGNE-FRANCHE-COMTE,SAÔNE,False,VESOUL,Vesoul Pres Caillet&FR82060,47.62,6.157611
578,BOURGOGNE-FRANCHE-COMTE,DOUBS,False,BAUME-LES-DAMES,Baume-les-Dames&FR82070,47.351288,6.359722
